[{"name": "Milan", "lat" : 45.464161, "lon" : 9.19199 },{"name": "Venice", "lat": 45.4389 ,"lon": 12.33092 },{"name": "New York", "lat" : 43.000351, "lon" : -75.499901}, {"name": "Hong Kong", "lat" : 22.285521, "lon" : 114.157692}, {"name": "Tokyo", "lat" : 35.689499, "lon" : 139.691711}]
